[
  {
    "type": "Feature",
    "properties": {
      "name": "Entrepot A",
      "letter": "A",
      "marker-color": "#0000ff",
      "marker-size": "medium",
      "marker-symbol": "circle"
    },
    "geometry": {
      "coordinates": [43.30510575413709, -0.33335181750962306],
      "type": "Point"
    },
    "id": 0
  },
  {
    "type": "Feature",
    "properties": {
      "name": "Entrepot B",
      "letter": "B",
      "marker-color": "#ff0000",
      "marker-size": "medium",
      "marker-symbol": "circle"
    },
    "geometry": {
      "coordinates": [43.32708689909185, -0.3467019497672652],
      "type": "Point"
    },
    "id": 1
  },
  {
    "type": "Feature",
    "properties": {
      "name": "Entrepot C",
      "letter": "C",
      "marker-color": "#ff0000",
      "marker-size": "medium",
      "marker-symbol": "circle"
    },
    "geometry": {
      "coordinates": [43.30573862053765, -0.37590057275227196],
      "type": "Point"
    },
    "id": 2
  },
  {
    "type": "Feature",
    "properties": {
      "name": "Entrepot D",
      "letter": "D",
      "marker-color": "#0000ff",
      "marker-size": "medium",
      "marker-symbol": "circle"
    },
    "geometry": {
      "coordinates": [43.317138041047514, -0.3575459723712413],
      "type": "Point"
    },
    "id": 3
  },
  {
    "type": "Feature",
    "properties": {
      "name": "Entrepot E",
      "letter": "E",
      "marker-color": "#0000ff",
      "marker-size": "medium",
      "marker-symbol": "circle"
    },
    "geometry": {
      "coordinates": [43.291712929765225, -0.36976413932083574],
      "type": "Point"
    },
    "id": 4
  },
  {
    "type": "Feature",
    "properties": {
      "name": "Entrepot F",
      "letter": "F",
      "marker-color": "#0000ff",
      "marker-size": "medium",
      "marker-symbol": "circle"
    },
    "geometry": {
      "coordinates": [43.298774033863964, -0.34695680285483377],
      "type": "Point"
    },
    "id": 5
  },
  {
    "type": "Feature",
    "properties": {
      "name": "Entrepot G",
      "letter": "G",
      "marker-color": "#0000ff",
      "marker-size": "medium",
      "marker-symbol": "circle"
    },
    "geometry": {
      "coordinates": [43.316946084065165, -0.3709880169306814],
      "type": "Point"
    },
    "id": 6
  }
]
